PacketCounter,SampleTimeFine,Acc_X,Acc_Y,Acc_Z,FreeAcc_E,FreeAcc_N,FreeAcc_U,AccHR_X,AccHR_Y,AccHR_Z,Gyr_X,Gyr_Y,Gyr_Z,GyrHR_X,GyrHR_Y,GyrHR_Z,Mag_X,Mag_Y,Mag_Z,VelInc_X,VelInc_Y,VelInc_Z,OriInc_q0,OriInc_q1,OriInc_q2,OriInc_q3,Pressure,Quat_q0,Quat_q1,Quat_q2,Quat_q3,Roll,Pitch,Yaw,Mat[1][1],Mat[2][1],Mat[3][1],Mat[1][2],Mat[2][2],Mat[3][2],Mat[1][3],Mat[2][3],Mat[3][3],Latitude,Longitude,Altitude,Vel_E,Vel_N,Vel_U,Temperature,GyrTemp_X,GyrTemp_Y,GyrTemp_Z
40224,1105539,-0.004852,0.162566,9.807539,-0.034429,-0.007151,0.021104,,,,0.001476,0.001466,-0.000983,,,,,,,-0.000012,0.000406,0.024519,1,0.000002,0.000002,-0.000001,,0.999955,0.008657,-0.001537,-0.003551,0.992668,-0.172615,-0.408476,0.99997,-0.007129,0.003013,0.007076,0.999825,0.017324,-0.003136,-0.017303,0.999845,,,,,,,30.29,,,
40225,1105564,0.034883,0.153792,9.791348,0.005194,-0.015998,0.004885,,,,0.00245,-0.001061,-0.00018,,,,,,,0.000087,0.000384,0.024478,1,0.000003,-0.000001,0,,0.999955,0.00866,-0.001539,-0.003551,0.992955,-0.172827,-0.408435,0.99997,-0.007128,0.003016,0.007075,0.999825,0.017329,-0.003139,-0.017308,0.999845,,,,,,,30.29,,,
40226,1105589,0.027542,0.197887,9.805868,-0.001827,0.027816,0.020145,,,,0.002906,0.000782,0.000771,,,,,,,0.000069,0.000495,0.024515,1,0.000004,0.000001,0.000001,,0.999955,0.008663,-0.001539,-0.003551,0.99332,-0.172778,-0.40839,0.99997,-0.007128,0.003016,0.007074,0.999825,0.017336,-0.003139,-0.017314,0.999845,,,,,,,30.29,,,
40227,1105614,-0.006631,0.158036,9.79588,-0.036034,-0.011511,0.009365,,,,-0.00046,0.005027,0.003161,,,,-0.217739,-0.277143,0.380352,-0.000016,0.000395,0.02449,1,-0.000001,0.000006,0.000004,100250,0.999955,0.008662,-0.001533,-0.003547,0.993203,-0.172127,-0.407992,0.99997,-0.007121,0.003004,0.007068,0.999825,0.017334,-0.003127,-0.017312,0.999845,,,,,,,30.29,,,
40228,1105639,0.020574,0.163279,9.80563,-0.008954,-0.006796,0.019285,,,,0.003324,0.000054,-0.001012,,,,,,,0.000051,0.000408,0.024514,1,0.000004,0,-0.000001,,0.999955,0.008666,-0.001533,-0.003549,0.993629,-0.172177,-0.408204,0.99997,-0.007124,0.003005,0.007071,0.999825,0.017341,-0.003128,-0.017319,0.999845,,,,,,,30.29,,,
40229,1105664,0.001695,0.147313,9.781337,-0.027885,-0.022148,-0.005339,,,,0.000743,-0.000063,0.001169,,,,,,,0.000004,0.000368,0.024453,1,0.000001,0,0.000001,,0.999955,0.008666,-0.001534,-0.003547,0.99367,-0.17225,-0.407962,0.99997,-0.00712,0.003006,0.007067,0.999825,0.017342,-0.003129,-0.01732,0.999845,,,,,,,30.29,,,
40230,1105689,0.014018,0.155087,9.798551,-0.015615,-0.014726,0.012046,,,,-0.000167,-0.000884,0.001823,,,,,,,0.000035,0.000388,0.024496,1,0,-0.000001,0.000002,,0.999955,0.008665,-0.001536,-0.003545,0.993595,-0.172442,-0.40777,0.99997,-0.007117,0.00301,0.007064,0.999825,0.017341,-0.003133,-0.017319,0.999845,,,,,,,30.29,,,
40231,1105714,0.0186,0.151852,9.792376,-0.01103,-0.017792,0.005828,,,,-0.001824,-0.000097,0.001975,,,,-0.21821,-0.27813,0.379857,0.000046,0.00038,0.024481,1,-0.000002,0,0.000002,100254,0.999955,0.008662,-0.001536,-0.003543,0.993282,-0.172522,-0.407555,0.99997,-0.007113,0.003011,0.00706,0.999825,0.017335,-0.003134,-0.017313,0.999845,,,,,,,30.29,,,
40232,1105739,0.03539,0.131352,9.786272,0.005658,-0.038305,-0.000579,,,,-0.000694,0.000624,-0.000809,,,,,,,0.000089,0.000328,0.024466,1,-0.000001,0.000001,-0.000001,,0.999955,0.008661,-0.001536,-0.003545,0.993133,-0.172491,-0.407737,0.99997,-0.007116,0.003011,0.007063,0.999825,0.017332,-0.003133,-0.017311,0.999845,,,,,,,30.29,,,
40233,1105764,0.041286,0.200402,9.811283,0.011811,0.030326,0.02564,,,,-0.001499,-0.002681,-0.003976,,,,,,,0.000103,0.000501,0.024528,1,-0.000002,-0.000003,-0.000005,,0.999955,0.008659,-0.00154,-0.003549,0.992856,-0.172926,-0.408222,0.99997,-0.007125,0.003018,0.007071,0.999825,0.017328,-0.003141,-0.017306,0.999845,,,,,,,30.29,,,
40234,1105789,0.064454,0.097194,9.801459,0.034266,-0.072821,0.014101,,,,-0.001337,-0.001353,-0.000873,,,,,,,0.000161,0.000243,0.024504,1,-0.000002,-0.000002,-0.000001,,0.999955,0.008657,-0.001542,-0.003551,0.992615,-0.173179,-0.408418,0.99997,-0.007128,0.003023,0.007075,0.999825,0.017323,-0.003145,-0.017302,0.999845,,,,,,,30.29,,,
40235,1105814,0.028337,0.174552,9.81002,-0.001236,0.00474,0.023891,,,,-0.002693,0.001439,0.000208,,,,-0.219656,-0.277627,0.380336,0.000071,0.000437,0.024525,1,-0.000003,0.000002,0,100250,0.999955,0.008653,-0.001541,-0.003551,0.992178,-0.173034,-0.408452,0.99997,-0.007129,0.00302,0.007075,0.999825,0.017316,-0.003143,-0.017294,0.999845,,,,,,,30.29,,,
40236,1105839,0.070502,0.133496,9.820342,0.040746,-0.036905,0.033628,,,,0.001217,0.003838,0.001238,,,,,,,0.000176,0.000334,0.024551,1,0.000002,0.000005,0.000002,,0.999955,0.008654,-0.001537,-0.00355,0.992302,-0.172548,-0.408333,0.99997,-0.007127,0.003012,0.007073,0.999825,0.017318,-0.003134,-0.017296,0.999845,,,,,,,30.29,,,
40237,1105864,0.02319,0.169444,9.820745,-0.006496,-0.000735,0.034513,,,,0.00292,-0.001629,-0.000049,,,,,,,0.000058,0.000423,0.024552,1,0.000004,-0.000002,0,,0.999955,0.008657,-0.001539,-0.003549,0.992655,-0.172842,-0.408256,0.99997,-0.007125,0.003017,0.007072,0.999825,0.017324,-0.00314,-0.017302,0.999846,,,,,,,30.29,,,
40238,1105889,0.063303,0.136211,9.807348,0.03359,-0.033942,0.020663,,,,0.000086,0.002783,-0.000598,,,,,,,0.000158,0.000341,0.024518,1,0,0.000003,-0.000001,,0.999955,0.008657,-0.001536,-0.003551,0.992617,-0.172503,-0.408403,0.99997,-0.007128,0.003011,0.007075,0.999825,0.017324,-0.003134,-0.017302,0.999846,,,,,,,30.29,,,
40239,1105914,-0.008886,0.203867,9.816766,-0.03805,0.034026,0.031035,,,,0.000779,0.003663,0.002498,,,,-0.218232,-0.276154,0.379848,-0.000022,0.00051,0.024542,1,0.000001,0.000005,0.000003,100250,0.999955,0.008657,-0.001532,-0.003548,0.992678,-0.172045,-0.408103,0.99997,-0.007123,0.003003,0.00707,0.999825,0.017325,-0.003126,-0.017303,0.999846,,,,,,,30.28,,,
40240,1105939,-0.025756,0.075013,9.779644,-0.055609,-0.094077,-0.008365,,,,0.001258,0.004198,0.000066,,,,,,,-0.000064,0.000187,0.024449,1,0.000002,0.000005,0,,0.999955,0.008658,-0.001527,-0.003549,0.992807,-0.171505,-0.408151,0.99997,-0.007123,0.002993,0.007071,0.999825,0.017327,-0.003116,-0.017305,0.999846,,,,,,,30.28,,,
40241,1105964,0.058416,0.27886,9.822176,0.029607,0.108335,0.037948,,,,0.002178,-0.003015,0.00094,,,,,,,0.000146,0.000697,0.024555,1,0.000003,-0.000004,0.000001,,0.999955,0.008661,-0.001532,-0.003547,0.993055,-0.172,-0.407952,0.99997,-0.00712,0.003002,0.007067,0.999825,0.017331,-0.003125,-0.017309,0.999846,,,,,,,30.28,,,
40242,1105989,0.000375,0.156775,9.816074,-0.029151,-0.013178,0.029555,,,,0.000588,0.001217,-0.000829,,,,,,,0.000001,0.000392,0.02454,1,0.000001,0.000002,-0.000001,,0.999955,0.008661,-0.001531,-0.003549,0.993089,-0.171884,-0.408135,0.99997,-0.007123,0.003,0.00707,0.999825,0.017332,-0.003123,-0.01731,0.999846,,,,,,,30.28,,,
40243,1106014,0.044217,0.164834,9.776926,0.014943,-0.00481,-0.009315,,,,0.001592,0.002331,-0.001113,,,,-0.221574,-0.277612,0.382297,0.000111,0.000412,0.024442,1,0.000002,0.000003,-0.000001,100249,0.999955,0.008662,-0.001528,-0.00355,0.993267,-0.171609,-0.408356,0.99997,-0.007127,0.002995,0.007074,0.999825,0.017335,-0.003118,-0.017313,0.999846,,,,,,,30.29,,,
40244,1106039,-0.037929,0.17343,9.779165,-0.067269,0.004275,-0.007172,,,,0.002133,-0.001056,0.002304,,,,,,,-0.000095,0.000433,0.024448,1,0.000003,-0.000001,0.000003,,0.999955,0.008665,-0.00153,-0.003548,0.993521,-0.171826,-0.408096,0.999971,-0.007123,0.002999,0.007069,0.999825,0.017339,-0.003122,-0.017318,0.999846,,,,,,,30.29,,,
40245,1106064,0.055086,0.166632,9.806633,0.025555,-0.003646,0.020449,,,,0.001018,-0.001432,0.000764,,,,,,,0.000138,0.000417,0.024517,1,0.000001,-0.000002,0.000001,,0.999955,0.008665,-0.001533,-0.003547,0.993604,-0.172094,-0.407911,0.99997,-0.007119,0.003004,0.007066,0.999825,0.017341,-0.003127,-0.017319,0.999845,,,,,,,30.29,,,
40246,1106089,0.027039,0.202338,9.84416,-0.002335,0.0317,0.058505,,,,-0.001277,-0.000088,0.000519,,,,,,,0.000068,0.000506,0.02461,1,-0.000002,0,0.000001,,0.999955,0.008663,-0.001533,-0.003546,0.99337,-0.172168,-0.407904,0.99997,-0.007119,0.003005,0.007066,0.999825,0.017337,-0.003128,-0.017315,0.999845,,,,,,,30.29,,,
40247,1106114,0.053974,0.143411,9.782743,0.024423,-0.026325,-0.003843,,,,-0.00087,0.001184,0.001859,,,,-0.217743,-0.276649,0.380844,0.000135,0.000359,0.024457,1,-0.000001,0.000001,0.000002,100254,0.999955,0.008662,-0.001532,-0.003545,0.993195,-0.172064,-0.407702,0.99997,-0.007116,0.003003,0.007063,0.999825,0.017334,-0.003126,-0.017312,0.999845,,,,,,,30.29,,,
40248,1106139,0.008433,0.153799,9.78806,-0.021036,-0.015711,0.001515,,,,-0.000176,0.001351,0.004832,,,,,,,0.000021,0.000385,0.02447,1,0,0.000002,0.000006,,0.999955,0.008661,-0.001531,-0.003539,0.993117,-0.171943,-0.407074,0.99997,-0.007105,0.003001,0.007052,0.999825,0.017332,-0.003124,-0.017311,0.999845,,,,,,,30.29,,,
40249,1106164,-0.005739,0.146167,9.835504,-0.035418,-0.024279,0.048779,,,,0.004535,0.000688,-0.000963,,,,,,,-0.000014,0.000365,0.024589,1,0.000006,0.000001,-0.000001,,0.999955,0.008666,-0.001531,-0.00354,0.993703,-0.171903,-0.407124,0.99997,-0.007106,0.003,0.007053,0.999825,0.017342,-0.003123,-0.017321,0.999845,,,,,,,30.29,,,
40250,1106189,0.104244,0.225598,9.821105,0.075174,0.054713,0.036089,,,,0.000235,0.000637,-0.002044,,,,,,,0.000261,0.000564,0.024553,1,0,0.000001,-0.000003,,0.999955,0.008666,-0.001531,-0.003543,0.993687,-0.171867,-0.407483,0.99997,-0.007112,0.003,0.007059,0.999825,0.017342,-0.003122,-0.01732,0.999845,,,,,,,30.29,,,
40251,1106214,0.022848,0.065995,9.778452,-0.007256,-0.103626,-0.00957,,,,0.00199,-0.00028,0.001106,,,,-0.219649,-0.27812,0.380833,0.000057,0.000165,0.024446,1,0.000002,0,0.000001,100262,0.999955,0.008668,-0.001531,-0.003542,0.993921,-0.171971,-0.407393,0.99997,-0.00711,0.003001,0.007057,0.999825,0.017346,-0.003124,-0.017325,0.999845,,,,,,,30.3,,,
40252,1106239,0.034052,0.166951,9.79316,0.004457,-0.00308,0.006922,,,,0.002385,-0.003102,0.003137,,,,,,,0.000085,0.000417,0.024483,1,0.000003,-0.000004,0.000004,,0.999955,0.008671,-0.001536,-0.003539,0.994211,-0.172484,-0.407019,0.99997,-0.007104,0.00301,0.00705,0.999825,0.017351,-0.003133,-0.01733,0.999845,,,,,,,30.3,,,
40253,1106264,0.035979,0.116809,9.807539,0.006048,-0.053518,0.020433,,,,0.002248,-0.000061,0.000284,,,,,,,0.00009,0.000292,0.024519,1,0.000003,0,0,,0.999955,0.008673,-0.001537,-0.003537,0.994469,-0.172555,-0.406871,0.99997,-0.007101,0.003012,0.007048,0.999825,0.017356,-0.003134,-0.017334,0.999845,,,,,,,30.3,,,
40254,1106289,0.032118,0.17954,9.823511,0.002611,0.008803,0.037481,,,,0.004343,0.000849,0.001083,,,,,,,0.00008,0.000449,0.024559,1,0.000005,0.000001,0.000001,,0.999955,0.008678,-0.001536,-0.003537,0.995041,-0.172497,-0.406781,0.99997,-0.0071,0.003011,0.007046,0.999825,0.017366,-0.003133,-0.017344,0.999845,,,,,,,30.3,,,
40255,1106314,0.000979,0.134284,9.804726,-0.028821,-0.035843,0.017818,,,,0.001232,-0.000007,0.003623,,,,-0.217767,-0.275172,0.378363,0.000002,0.000336,0.024512,1,0.000002,0,0.000005,100254,0.999955,0.008679,-0.001537,-0.003533,0.995165,-0.172568,-0.40633,0.99997,-0.007092,0.003012,0.007038,0.999825,0.017368,-0.003135,-0.017346,0.999845,,,,,,,30.29,,,
40256,1106339,0.000984,0.199019,9.786604,-0.028326,0.029068,0.000824,,,,0.003386,-0.000249,0.000147,,,,,,,0.000002,0.000497,0.024467,1,0.000004,0,0,,0.999955,0.008683,-0.001538,-0.003533,0.9956,-0.172664,-0.406377,0.99997,-0.007093,0.003014,0.007039,0.999824,0.017376,-0.003136,-0.017354,0.999845,,,,,,,30.29,,,
40257,1106364,0.00402,0.096397,9.786248,-0.026139,-0.073513,-0.001308,,,,0.00117,-0.002539,-0.000933,,,,,,,0.00001,0.000241,0.024466,1,0.000001,-0.000003,-0.000001,,0.999955,0.008684,-0.001541,-0.003534,0.995704,-0.173087,-0.406461,0.99997,-0.007094,0.003021,0.00704,0.999824,0.017377,-0.003144,-0.017356,0.999844,,,,,,,30.29,,,
40258,1106389,0.045288,0.18652,9.819148,0.015685,0.015566,0.033278,,,,0.004096,-0.00046,0.001403,,,,,,,0.000113,0.000466,0.024548,1,0.000005,-0.000001,0.000002,,0.999955,0.008688,-0.001542,-0.003533,0.99624,-0.173217,-0.406329,0.99997,-0.007092,0.003023,0.007038,0.999824,0.017387,-0.003146,-0.017365,0.999844,,,,,,,30.29,,,
40259,1106414,0.013829,0.169207,9.803104,-0.015843,-0.001184,0.016841,,,,0.001027,-0.000086,-0.003555,,,,-0.21721,-0.281096,0.381365,0.000035,0.000423,0.024508,1,0.000001,0,-0.000004,100252,0.999955,0.008689,-0.001543,-0.003538,0.996338,-0.173281,-0.406906,0.99997,-0.007102,0.003024,0.007048,0.999824,0.017388,-0.003147,-0.017367,0.999844,,,,,,,30.29,,,
40260,1106439,0.004305,0.151645,9.790826,-0.025441,-0.018497,0.00423,,,,0.001413,0.000454,0.001524,,,,,,,0.000011,0.000379,0.024477,1,0.000002,0.000001,0.000002,,0.999955,0.00869,-0.001543,-0.003536,0.996489,-0.17328,-0.406754,0.99997,-0.007099,0.003024,0.007045,0.999824,0.017391,-0.003147,-0.017369,0.999844,,,,,,,30.29,,,
40261,1106464,0.045578,0.144577,9.804725,0.015683,-0.026148,0.018128,,,,0.001963,-0.000665,0.000717,,,,,,,0.000114,0.000361,0.024512,1,0.000002,-0.000001,0.000001,,0.999955,0.008692,-0.001544,-0.003535,0.996706,-0.173439,-0.406571,0.99997,-0.007096,0.003027,0.007042,0.999824,0.017395,-0.00315,-0.017373,0.999844,,,,,,,30.29,,,
40262,1106489,0.030141,0.1794,9.805512,0.000486,0.008793,0.019475,,,,0.000576,-0.00018,0.000345,,,,,,,0.000075,0.000448,0.024514,1,0.000001,0,0,,0.999955,0.008693,-0.001545,-0.003535,0.996738,-0.173526,-0.40659,0.99997,-0.007096,0.003029,0.007043,0.999824,0.017395,-0.003152,-0.017374,0.999844,,,,,,,30.29,,,
40263,1106514,0.010237,0.13702,9.81636,-0.019821,-0.033653,0.029525,,,,0.00101,-0.001292,0.001786,,,,-0.218218,-0.277637,0.378865,0.000026,0.000342,0.024541,1,0.000001,-0.000002,0.000002,100260,0.999955,0.008693,-0.001547,-0.003533,0.996831,-0.173776,-0.406405,0.99997,-0.007093,0.003033,0.007039,0.999824,0.017397,-0.003156,-0.017375,0.999844,,,,,,,30.3,,,
40264,1106539,0.05071,0.192478,9.826042,0.020894,0.021511,0.040293,,,,-0.002794,-0.002868,-0.000738,,,,,,,0.000127,0.000481,0.024565,1,-0.000003,-0.000004,-0.000001,,0.999955,0.008689,-0.001551,-0.003535,0.996381,-0.174246,-0.406585,0.99997,-0.007096,0.003041,0.007042,0.999824,0.017389,-0.003164,-0.017367,0.999844,,,,,,,30.3,,,
40265,1106564,0.013666,0.094527,9.774971,-0.016769,-0.07527,-0.012585,,,,-0.001222,-0.003085,0.001699,,,,,,,0.000034,0.000236,0.024437,1,-0.000002,-0.000004,0.000002,,0.999955,0.008687,-0.001556,-0.003532,0.996141,-0.174753,-0.406244,0.99997,-0.00709,0.00305,0.007036,0.999824,0.017385,-0.003173,-0.017363,0.999844,,,,,,,30.3,,,
40266,1106589,0.005559,0.177087,9.799315,-0.024361,0.007052,0.013166,,,,-0.003341,-0.0011,0.001843,,,,,,,0.000014,0.000443,0.024498,1,-0.000004,-0.000001,0.000002,,0.999955,0.008683,-0.001558,-0.00353,0.995611,-0.174976,-0.40605,0.999971,-0.007087,0.003054,0.007033,0.999825,0.017376,-0.003177,-0.017354,0.999845,,,,,,,30.3,,,
40267,1106614,0.028523,0.119338,9.831999,-0.001908,-0.051652,0.04491,,,,0.003306,-0.000326,0.000741,,,,-0.222104,-0.274159,0.378317,0.000071,0.000298,0.02458,1,0.000004,0,0.000001,100250,0.999955,0.008686,-0.001559,-0.00353,0.996034,-0.175085,-0.406012,0.99997,-0.007086,0.003056,0.007032,0.999824,0.017383,-0.003178,-0.017361,0.999844,,,,,,,30.29,,,
40268,1106639,0.085809,0.207263,9.820081,0.055932,0.036233,0.034698,,,,-0.001714,-0.002028,-0.00024,,,,,,,0.000214,0.000518,0.02455,1,-0.000002,-0.000003,0,,0.999955,0.008684,-0.001562,-0.003531,0.995738,-0.175436,-0.406119,0.99997,-0.007088,0.003062,0.007034,0.999824,0.017378,-0.003185,-0.017356,0.999844,,,,,,,30.29,,,
40269,1106664,0.001272,0.073007,9.794593,-0.029444,-0.097043,0.006619,,,,0.001089,-0.000341,-0.000066,,,,,,,0.000003,0.000182,0.024486,1,0.000001,0,0,,0.999955,0.008685,-0.001563,-0.00353,0.995831,-0.175545,-0.40604,0.99997,-0.007087,0.003064,0.007032,0.999824,0.01738,-0.003186,-0.017358,0.999844,,,,,,,30.29,,,
40270,1106689,0.067079,0.195026,9.785797,0.037223,0.024773,0.000147,,,,-0.001957,-0.000493,-0.001223,,,,,,,0.000168,0.000488,0.024464,1,-0.000002,-0.000001,-0.000002,,0.999955,0.008682,-0.001564,-0.003532,0.995501,-0.175673,-0.406284,0.99997,-0.007091,0.003066,0.007037,0.999824,0.017374,-0.003189,-0.017352,0.999844,,,,,,,30.29,,,
40271,1106714,-0.034669,0.150313,9.788654,-0.06484,-0.019423,0.001915,,,,0.002498,0.000108,0.000393,,,,-0.217259,-0.277147,0.379862,-0.000087,0.000376,0.024472,1,0.000003,0,0,100252,0.999955,0.008684,-0.001564,-0.003532,0.995808,-0.17572,-0.406295,0.99997,-0.007091,0.003067,0.007037,0.999824,0.017379,-0.00319,-0.017357,0.999844,,,,,,,30.29,,,
40272,1106739,0.052654,0.156882,9.801414,0.022738,-0.013489,0.015054,,,,-0.002819,0.005358,-0.001781,,,,,,,0.000132,0.000392,0.024504,1,-0.000004,0.000007,-0.000002,,0.999955,0.008681,-0.001558,-0.003535,0.995354,-0.175008,-0.406604,0.99997,-0.007096,0.003054,0.007042,0.999824,0.017371,-0.003177,-0.017349,0.999844,,,,,,,30.29,,,
40273,1106764,0.021224,0.227114,9.790562,-0.008316,0.056901,0.005331,,,,0.003741,-0.000151,0.002299,,,,,,,0.000053,0.000568,0.024476,1,0.000005,0,0.000003,,0.999955,0.008685,-0.001559,-0.003531,0.995825,-0.175097,-0.4062,0.99997,-0.007089,0.003056,0.007035,0.999824,0.017379,-0.003179,-0.017357,0.999844,,,,,,,30.29,,,
40274,1106789,-0.063055,0.144309,9.807731,-0.093343,-0.025429,0.0208,,,,-0.001219,-0.00218,0.002287,,,,,,,-0.000158,0.000361,0.024519,1,-0.000002,-0.000003,0.000003,,0.999955,0.008683,-0.001562,-0.003529,0.995599,-0.175476,-0.405945,0.99997,-0.007085,0.003063,0.007031,0.999824,0.017376,-0.003185,-0.017353,0.999845,,,,,,,30.29,,,
40275,1106814,0.065044,0.162362,9.800289,0.034891,-0.008415,0.014064,,,,0.00482,-0.001103,0.000643,,,,-0.219661,-0.277631,0.378356,0.000163,0.000406,0.024501,1,0.000006,-0.000001,0.000001,100253,0.999955,0.008688,-0.001564,-0.003529,0.996238,-0.175696,-0.405923,0.99997,-0.007085,0.003066,0.00703,0.999824,0.017387,-0.003189,-0.017365,0.999844,,,,,,,30.29,,,
40276,1106839,0.055595,0.184333,9.81481,0.025528,0.013423,0.028937,,,,0.001452,-0.000779,0.002178,,,,,,,0.000139,0.000461,0.024537,1,0.000002,-0.000001,0.000003,,0.999955,0.00869,-0.001566,-0.003527,0.996395,-0.175874,-0.405681,0.99997,-0.00708,0.00307,0.007026,0.999824,0.017389,-0.003192,-0.017367,0.999844,,,,,,,30.29,,,
40277,1106864,0.007943,0.159367,9.815907,-0.022203,-0.011095,0.029455,,,,-0.00163,0.00178,-0.001787,,,,,,,0.00002,0.000399,0.02454,1,-0.000002,0.000002,-0.000002,,0.999955,0.008687,-0.001564,-0.003528,0.996097,-0.175676,-0.405846,0.99997,-0.007083,0.003066,0.007029,0.999824,0.017384,-0.003189,-0.017362,0.999844,,,,,,,30.29,,,
40278,1106889,0.0444,0.171163,9.809973,0.014288,0.000604,0.023835,,,,-0.001836,-0.00024,0.000583,,,,,,,0.000111,0.000428,0.024525,1,-0.000002,0,0.000001,,0.999955,0.008684,-0.001565,-0.003528,0.995784,-0.175772,-0.405831,0.99997,-0.007083,0.003068,0.007029,0.999824,0.017379,-0.00319,-0.017357,0.999844,,,,,,,30.29,,,
40279,1106914,0.065532,0.153803,9.782911,0.035303,-0.016372,-0.003458,,,,-0.00197,-0.001553,0.001454,,,,-0.216787,-0.276658,0.378874,0.000164,0.000385,0.024457,1,-0.000002,-0.000002,0.000002,100254,0.999955,0.008681,-0.001567,-0.003527,0.995451,-0.176059,-0.405694,0.99997,-0.007081,0.003073,0.007026,0.999824,0.017373,-0.003195,-0.017351,0.999844,,,,,,,30.3,,,
40280,1106939,0.006968,0.167589,9.825373,-0.023235,-0.002912,0.039057,,,,-0.000787,0.000725,0.000448,,,,,,,0.000017,0.000419,0.024563,1,-0.000001,0.000001,0.000001,,0.999955,0.00868,-0.001567,-0.003527,0.995288,-0.176017,-0.405696,0.99997,-0.007081,0.003072,0.007026,0.999824,0.01737,-0.003195,-0.017348,0.999844,,,,,,,30.3,,,
40281,1106964,0.069335,0.167435,9.831788,0.03922,-0.003377,0.045661,,,,-0.005093,0.00283,0.002321,,,,,,,0.000174,0.000419,0.024579,1,-0.000006,0.000004,0.000003,,0.999955,0.008673,-0.001564,-0.003523,0.994492,-0.175678,-0.405274,0.99997,-0.007073,0.003066,0.007019,0.999825,0.017356,-0.003188,-0.017334,0.999845,,,,,,,30.3,,,
40282,1106989,-0.025311,0.202435,9.79867,-0.055217,0.032757,0.012863,,,,-0.000252,-0.001308,0.001258,,,,,,,-0.000063,0.000506,0.024497,1,0,-0.000002,0.000002,,0.999955,0.008672,-0.001566,-0.003522,0.994405,-0.17593,-0.405165,0.99997,-0.007071,0.003071,0.007017,0.999825,0.017355,-0.003193,-0.017333,0.999845,,,,,,,30.3,,,
40283,1107014,0.0521,0.088412,9.781431,0.021314,-0.081599,-0.006113,,,,0.002203,-0.003128,0.000689,,,,-0.217717,-0.279121,0.379866,0.00013,0.000221,0.024454,1,0.000003,-0.000004,0.000001,100254,0.999955,0.008675,-0.00157,-0.003522,0.99467,-0.17644,-0.405141,0.99997,-0.007071,0.003079,0.007016,0.999825,0.017359,-0.003202,-0.017337,0.999845,,,,,,,30.29,,,
40284,1107039,0.042581,0.198212,9.796691,0.012489,0.028017,0.011021,,,,0.000613,-0.001928,0.000609,,,,,,,0.000106,0.000495,0.024492,1,0.000001,-0.000002,0.000001,,0.999955,0.008675,-0.001573,-0.003522,0.994708,-0.176778,-0.405127,0.99997,-0.007071,0.003085,0.007016,0.999825,0.01736,-0.003208,-0.017338,0.999845,,,,,,,30.29,,,
40285,1107064,-0.009401,0.138401,9.821222,-0.040082,-0.031955,0.03435,,,,0.002866,-0.002642,-0.001185,,,,,,,-0.000024,0.000346,0.024553,1,0.000004,-0.000003,-0.000001,,0.999955,0.008678,-0.001577,-0.003523,0.995054,-0.177216,-0.40525,0.99997,-0.007073,0.003093,0.007018,0.999825,0.017366,-0.003215,-0.017344,0.999845,,,,,,,30.29,,,
40286,1107089,0.063316,0.188574,9.81262,0.033228,0.018238,0.026845,,,,-0.006449,0.003245,-0.00052,,,,,,,0.000158,0.000472,0.024532,1,-0.000008,0.000004,-0.000001,,0.999955,0.008669,-0.001574,-0.003524,0.99408,-0.17681,-0.405384,0.99997,-0.007075,0.003086,0.007021,0.999825,0.017349,-0.003208,-0.017327,0.999845,,,,,,,30.29,,,
40287,1107114,-0.000605,0.143304,9.792972,-0.031161,-0.026361,0.006216,,,,-0.000386,-0.002524,0.001352,,,,-0.218216,-0.278135,0.377382,-0.000002,0.000358,0.024482,1,0,-0.000003,0.000002,100254,0.999955,0.008668,-0.001577,-0.003523,0.993974,-0.177236,-0.405264,0.99997,-0.007073,0.003093,0.007018,0.999825,0.017347,-0.003215,-0.017325,0.999845,,,,,,,30.29,,,
40288,1107139,0.041279,0.160271,9.808064,0.010874,-0.010015,0.021729,,,,0.001203,0.000612,0.000028,,,,,,,0.000103,0.000401,0.02452,1,0.000002,0.000001,0,,0.999955,0.008669,-0.001577,-0.003524,0.994095,-0.177209,-0.405326,0.99997,-0.007074,0.003093,0.007019,0.999825,0.017349,-0.003215,-0.017327,0.999845,,,,,,,30.29,,,
40289,1107164,-0.011812,0.152232,9.779191,-0.042088,-0.017092,-0.007443,,,,-0.000916,0.002369,0.000248,,,,,,,-0.000029,0.000381,0.024448,1,-0.000001,0.000003,0,,0.999955,0.008668,-0.001575,-0.003523,0.9939,-0.176931,-0.405204,0.99997,-0.007072,0.003088,0.007017,0.999825,0.017346,-0.00321,-0.017324,0.999845,,,,,,,30.29,,,
40290,1107189,0.061244,0.189777,9.802796,0.030906,0.01966,0.017035,,,,-0.003083,-0.003661,0.000405,,,,,,,0.000153,0.000475,0.024507,1,-0.000004,-0.000005,0.000001,,0.999955,0.008663,-0.00158,-0.003523,0.993407,-0.177517,-0.405222,0.99997,-0.007072,0.003098,0.007018,0.999825,0.017337,-0.00322,-0.017315,0.999845,,,,,,,30.29,,,
40291,1107214,-0.016336,0.181543,9.798191,-0.046771,0.011824,0.012046,,,,0.003358,-0.002691,0.002404,,,,-0.21917,-0.278623,0.37787,-0.000041,0.000454,0.024495,1,0.000004,-0.000003,0.000003,100254,0.999955,0.008667,-0.001584,-0.00352,0.993837,-0.17797,-0.404952,0.99997,-0.007068,0.003106,0.007013,0.999825,0.017345,-0.003228,-0.017322,0.999845,,,,,,,30.29,,,
40292,1107239,-0.013282,0.121035,9.756659,-0.043851,-0.048008,-0.030518,,,,0.002501,0.002053,0.001837,,,,,,,-0.000033,0.000302,0.024392,1,0.000003,0.000003,0.000002,,0.999955,0.00867,-0.001582,-0.003519,0.994144,-0.177741,-0.404752,0.99997,-0.007064,0.003102,0.007009,0.999825,0.01735,-0.003224,-0.017328,0.999845,,,,,,,30.29,,,
40293,1107264,-0.001425,0.232453,9.822176,-0.031592,0.06216,0.036962,,,,0.001732,-0.002143,0.001063,,,,,,,-0.000004,0.000581,0.024555,1,0.000002,-0.000003,0.000001,,0.999955,0.008671,-0.001585,-0.003517,0.994327,-0.178112,-0.404538,0.99997,-0.00706,0.003109,0.007005,0.999825,0.017353,-0.003231,-0.017331,0.999845,,,,,,,30.29,,,
40294,1107289,0.080819,0.090352,9.791064,0.049856,-0.07989,0.003643,,,,-0.000341,0.001193,0.000299,,,,,,,0.000202,0.000226,0.024478,1,0,0.000001,0,,0.999955,0.008671,-0.001584,-0.003517,0.994227,-0.178002,-0.40456,0.99997,-0.007061,0.003107,0.007006,0.999825,0.017352,-0.003229,-0.017329,0.999845,,,,,,,30.29,,,
40295,1107314,-0.000414,0.255117,9.809353,-0.030301,0.08518,0.024533,,,,-0.001553,0.000332,-0.00039,,,,-0.218202,-0.279121,0.378377,-0.000001,0.000638,0.024523,1,-0.000002,0,0,100244,0.999955,0.008668,-0.001584,-0.003518,0.993955,-0.178014,-0.404683,0.99997,-0.007063,0.003107,0.007008,0.999825,0.017347,-0.003229,-0.017325,0.999845,,,,,,,30.29,,,
40296,1107339,-0.002583,0.061112,9.797668,-0.033795,-0.108566,0.00948,,,,-0.000751,0.000342,0.001956,,,,,,,-0.000006,0.000153,0.024494,1,-0.000001,0,0.000002,,0.999955,0.008667,-0.001584,-0.003516,0.993796,-0.178031,-0.404469,0.99997,-0.007059,0.003107,0.007004,0.999825,0.017344,-0.003229,-0.017322,0.999845,,,,,,,30.29,,,
40297,1107364,0.084925,0.214226,9.796046,0.054673,0.043863,0.010787,,,,0.001221,-0.002013,-0.002693,,,,,,,0.000212,0.000535,0.02449,1,0.000002,-0.000003,-0.000003,,0.999955,0.008668,-0.001587,-0.003519,0.993908,-0.178374,-0.40478,0.99997,-0.007065,0.003113,0.00701,0.999825,0.017346,-0.003235,-0.017324,0.999845,,,,,,,30.29,,,
40298,1107389,-0.009784,0.106094,9.785318,-0.040796,-0.063351,-0.00211,,,,-0.00008,-0.001593,-0.001262,,,,,,,-0.000025,0.000265,0.024463,1,0,-0.000002,-0.000002,,0.999955,0.008667,-0.00159,-0.003521,0.993847,-0.17866,-0.405032,0.99997,-0.007069,0.003118,0.007014,0.999825,0.017345,-0.00324,-0.017323,0.999845,,,,,,,30.29,,,
40299,1107414,0.038799,0.179474,9.841751,0.008033,0.008622,0.055738,,,,0.001637,-0.002302,-0.001231,,,,-0.217249,-0.278136,0.379371,0.000097,0.000449,0.024604,1,0.000002,-0.000003,-0.000002,100252,0.999955,0.008669,-0.001593,-0.003523,0.994031,-0.179047,-0.405281,0.99997,-0.007073,0.003125,0.007018,0.999825,0.017348,-0.003247,-0.017326,0.999845,,,,,,,30.29,,,
40300,1107439,0.020316,0.14339,9.79259,-0.010644,-0.026339,0.0059,,,,-0.001727,-0.003001,0.001653,,,,,,,0.000051,0.000359,0.024481,1,-0.000002,-0.000004,0.000002,,0.999955,0.008666,-0.001597,-0.003522,0.993733,-0.179542,-0.40512,0.99997,-0.007071,0.003134,0.007015,0.999825,0.017343,-0.003256,-0.01732,0.999845,,,,,,,30.29,,,
40301,1107464,0.022593,0.184652,9.794283,-0.007906,0.014844,0.008314,,,,-0.000143,0.002346,0.001391,,,,,,,0.000057,0.000462,0.024486,1,0,0.000003,0.000002,,0.999955,0.008666,-0.001595,-0.003519,0.993648,-0.17927,-0.404854,0.99997,-0.007066,0.003129,0.007011,0.999825,0.017341,-0.003251,-0.017319,0.999845,,,,,,,30.29,,,
40302,1107489,0.036382,0.147723,9.814,0.005589,-0.022462,0.027431,,,,-0.001043,0.001913,-0.00466,,,,,,,0.000091,0.000369,0.024535,1,-0.000001,0.000002,-0.000006,,0.999955,0.008664,-0.001593,-0.003526,0.99345,-0.179046,-0.405584,0.99997,-0.007079,0.003125,0.007023,0.999825,0.017338,-0.003247,-0.017316,0.999845,,,,,,,30.29,,,
40303,1107514,0.020007,0.169887,9.82337,-0.010678,-0.000392,0.037132,,,,0.000568,0.000849,0.000947,,,,-0.218239,-0.275661,0.37935,0.00005,0.000425,0.024558,1,0.000001,0.000001,0.000001,100260,0.999955,0.008664,-0.001593,-0.003525,0.993481,-0.178987,-0.405514,0.99997,-0.007077,0.003124,0.007022,0.999825,0.017339,-0.003246,-0.017316,0.999845,,,,,,,30.29,,,
40304,1107539,0.068284,0.203729,9.798694,0.037931,0.033599,0.013196,,,,-0.000943,0.001035,0.005309,,,,,,,0.000171,0.000509,0.024497,1,-0.000001,0.000001,0.000007,,0.999955,0.008662,-0.001592,-0.003519,0.993293,-0.178913,-0.404819,0.99997,-0.007065,0.003123,0.00701,0.999825,0.017335,-0.003245,-0.017313,0.999845,,,,,,,30.29,,,
40305,1107564,0.000923,0.134327,9.804082,-0.029952,-0.035424,0.017172,,,,0.000089,0.000314,0.002,,,,,,,0.000002,0.000336,0.02451,1,0,0,0.000003,,0.999955,0.008662,-0.001592,-0.003516,0.99324,-0.178933,-0.404455,0.99997,-0.007059,0.003123,0.007004,0.999825,0.017334,-0.003245,-0.017312,0.999845,,,,,,,30.29,,,
40306,1107589,0.073153,0.16511,9.769199,0.042575,-0.004648,-0.016945,,,,0.002142,-0.000331,-0.004715,,,,,,,0.000183,0.000413,0.024423,1,0.000003,0,-0.000006,,0.999955,0.008664,-0.001593,-0.003522,0.993498,-0.17903,-0.405199,0.99997,-0.007072,0.003125,0.007017,0.999825,0.017339,-0.003247,-0.017316,0.999845,,,,,,,30.29,,,
40307,1107614,-0.077755,0.194963,9.795262,-0.108385,0.026005,0.009157,,,,-0.002576,-0.00364,-0.000076,,,,-0.219194,-0.27565,0.381816,-0.000195,0.000488,0.024488,1,-0.000003,-0.000005,0,100256,0.999955,0.008661,-0.001598,-0.003523,0.993079,-0.179612,-0.405286,0.99997,-0.007073,0.003135,0.007018,0.999825,0.017332,-0.003257,-0.017309,0.999845,,,,,,,30.31,,,
40308,1107639,0.103266,0.109206,9.782362,0.072183,-0.060822,-0.004659,,,,-0.000557,0.000723,0.001473,,,,,,,0.000258,0.000273,0.024456,1,-0.000001,0.000001,0.000002,,0.999955,0.008659,-0.001598,-0.003522,0.992948,-0.179572,-0.405141,0.99997,-0.007071,0.003134,0.007016,0.999825,0.017329,-0.003256,-0.017307,0.999845,,,,,,,30.31,,,
40309,1107664,-0.049324,0.248999,9.804961,-0.079534,0.079452,0.019883,,,,0.003687,-0.000203,0.000065,,,,,,,-0.000123,0.000622,0.024512,1,0.000005,0,0,,0.999955,0.008663,-0.001598,-0.003521,0.993412,-0.179663,-0.405031,0.99997,-0.007069,0.003136,0.007014,0.999825,0.017337,-0.003258,-0.017315,0.999845,,,,,,,30.31,,,
40310,1107689,0.027473,0.053775,9.782743,-0.004149,-0.115677,-0.005473,,,,-0.002468,-0.002225,0.000515,,,,,,,0.000069,0.000135,0.024457,1,-0.000003,-0.000003,0.000001,,0.999955,0.00866,-0.001602,-0.003521,0.993007,-0.180043,-0.40503,0.99997,-0.007069,0.003142,0.007014,0.999825,0.01733,-0.003264,-0.017308,0.999845,,,,,,,30.31,,,
40311,1107714,0.044452,0.208353,9.80015,0.013879,0.038499,0.014661,,,,-0.001968,-0.000386,0.003488,,,,-0.219145,-0.280596,0.378869,0.000111,0.000521,0.0245,1,-0.000002,0,0.000004,100254,0.999955,0.008657,-0.001603,-0.003517,0.992674,-0.180168,-0.404599,0.99997,-0.007062,0.003145,0.007006,0.999825,0.017324,-0.003266,-0.017302,0.999845,,,,,,,30.3,,,
40312,1107739,-0.048572,0.097486,9.81195,-0.079944,-0.07193,0.024245,,,,-0.000125,0.000273,0.000408,,,,,,,-0.000121,0.000244,0.02453,1,0,0,0.000001,,0.999955,0.008656,-0.001603,-0.003517,0.992605,-0.180191,-0.404608,0.99997,-0.007062,0.003145,0.007006,0.999826,0.017323,-0.003267,-0.017301,0.999845,,,,,,,30.3,,,
40313,1107764,0.120576,0.190372,9.819196,0.08984,0.019495,0.033631,,,,0.002746,0.000741,0.004239,,,,,,,0.000301,0.000476,0.024548,1,0.000003,0.000001,0.000005,,0.999955,0.008659,-0.001603,-0.003511,0.992932,-0.180156,-0.403923,0.99997,-0.00705,0.003144,0.006994,0.999825,0.017329,-0.003266,-0.017306,0.999845,,,,,,,30.3,,,
40314,1107789,-0.002658,0.133012,9.768484,-0.03382,-0.036171,-0.018453,,,,0.002847,-0.00342,0.000157,,,,,,,-0.000007,0.000332,0.024421,1,0.000004,-0.000004,0,,0.999955,0.008662,-0.001607,-0.003512,0.993289,-0.180707,-0.403976,0.99997,-0.007051,0.003154,0.006995,0.999825,0.017335,-0.003276,-0.017313,0.999845,,,,,,,30.3,,,
40315,1107814,0.012692,0.148164,9.804225,-0.018424,-0.02174,0.017592,,,,0.001398,-0.000355,-0.000553,,,,-0.219207,-0.274663,0.381316,0.000032,0.00037,0.024511,1,0.000002,0,-0.000001,100252,0.999955,0.008664,-0.001608,-0.003513,0.993439,-0.180817,-0.404124,0.99997,-0.007053,0.003156,0.006997,0.999825,0.017338,-0.003278,-0.017315,0.999845,,,,,,,30.29,,,
40316,1107839,0.091573,0.214468,9.815931,0.060837,0.043816,0.030697,,,,0.000457,-0.000758,0.003212,,,,,,,0.000229,0.000536,0.02454,1,0.000001,-0.000001,0.000004,,0.999955,0.008664,-0.00161,-0.003509,0.993453,-0.180994,-0.403733,0.99997,-0.007046,0.003159,0.006991,0.999825,0.017338,-0.003281,-0.017315,0.999845,,,,,,,30.29,,,
40317,1107864,-0.016672,0.133606,9.79147,-0.047867,-0.035864,0.004493,,,,0.000811,0.000272,-0.000152,,,,,,,-0.000042,0.000334,0.024479,1,0.000001,0,0,,0.999955,0.008664,-0.00161,-0.003509,0.993505,-0.181016,-0.403679,0.99997,-0.007045,0.003159,0.00699,0.999825,0.017339,-0.003281,-0.017316,0.999845,,,,,,,30.29,,,
40318,1107889,0.0361,0.200531,9.794829,0.005432,0.030557,0.009181,,,,0.001846,0.001808,-0.000907,,,,,,,0.00009,0.000501,0.024487,1,0.000002,0.000002,-0.000001,,0.999955,0.008666,-0.001608,-0.003511,0.993719,-0.180816,-0.403872,0.99997,-0.007049,0.003156,0.006993,0.999825,0.017343,-0.003278,-0.01732,0.999845,,,,,,,30.29,,,
40319,1107914,0.069945,0.162271,9.800982,0.038948,-0.008042,0.014775,,,,0.001121,0.000291,-0.000021,,,,-0.216288,-0.278141,0.37938,0.000175,0.000406,0.024502,1,0.000001,0,0,100254,0.999955,0.008667,-0.001609,-0.003511,0.993829,-0.180835,-0.403942,0.99997,-0.00705,0.003156,0.006994,0.999825,0.017345,-0.003278,-0.017322,0.999845,,,,,,,30.29,,,
40320,1107939,-0.007236,0.159251,9.810851,-0.03828,-0.010914,0.024344,,,,0.005329,0.000543,0.004228,,,,,,,-0.000018,0.000398,0.024527,1,0.000007,0.000001,0.000005,,0.999955,0.008673,-0.001609,-0.003507,0.99454,-0.180828,-0.403402,0.99997,-0.007041,0.003156,0.006985,0.999825,0.017357,-0.003278,-0.017334,0.999844,,,,,,,30.29,,,
40321,1107964,0.060801,0.177735,9.809162,0.030194,0.007269,0.02319,,,,-0.000255,0.006656,0.0015,,,,,,,0.000152,0.000444,0.024523,1,0,0.000008,0.000002,,0.999955,0.008672,-0.001601,-0.003504,0.99444,-0.17994,-0.403075,0.99997,-0.007035,0.003141,0.006979,0.999825,0.017355,-0.003262,-0.017333,0.999844,,,,,,,30.29,,,
40322,1107989,0.015548,0.177228,9.806895,-0.015376,0.007102,0.020773,,,,0.000458,-0.003026,0.000397,,,,,,,0.000039,0.000443,0.024517,1,0.000001,-0.000004,0,,0.999955,0.008673,-0.001605,-0.003504,0.994455,-0.180435,-0.403093,0.99997,-0.007035,0.003149,0.00698,0.999825,0.017356,-0.003271,-0.017333,0.999844,,,,,,,30.29,,,
40323,1108014,-0.015931,0.155093,9.807634,-0.046889,-0.014757,0.021029,,,,-0.000912,0.001188,0.00137,,,,-0.219678,-0.276149,0.378349,-0.00004,0.000388,0.024519,1,-0.000001,0.000001,0.000002,100251,0.999955,0.008671,-0.001604,-0.003503,0.994273,-0.180329,-0.402961,0.99997,-0.007033,0.003147,0.006977,0.999825,0.017352,-0.003269,-0.01733,0.999844,,,,,,,30.29,,,
40324,1108039,0.044352,0.165542,9.805726,0.013276,-0.004776,0.019493,,,,0.001284,-0.003169,0.000948,,,,,,,0.000111,0.000414,0.024514,1,0.000002,-0.000004,0.000001,,0.999955,0.008672,-0.001609,-0.003502,0.994406,-0.180846,-0.402901,0.99997,-0.007032,0.003156,0.006976,0.999825,0.017355,-0.003278,-0.017332,0.999844,,,,,,,30.29,,,
40325,1108064,0.011717,0.150008,9.802506,-0.019268,-0.020113,0.015904,,,,0.002704,0.002477,0.000163,,,,,,,0.000029,0.000375,0.024506,1,0.000003,0.000003,0,,0.999955,0.008675,-0.001606,-0.003501,0.994729,-0.180552,-0.402768,0.999971,-0.00703,0.003151,0.006974,0.999825,0.01736,-0.003273,-0.017338,0.999845,,,,,,,30.29,,,
40326,1108089,-0.024529,0.180864,9.79743,-0.055312,0.011204,0.011249,,,,-0.000992,0.000853,0.002503,,,,,,,-0.000061,0.000452,0.024494,1,-0.000001,0.000001,0.000003,,0.999955,0.008673,-0.001606,-0.003498,0.994535,-0.180497,-0.402475,0.999971,-0.007024,0.00315,0.006969,0.999825,0.017357,-0.003272,-0.017334,0.999845,,,,,,,30.29,,,
40327,1108114,0.045352,0.150006,9.779836,0.014513,-0.01979,-0.00666,,,,-0.001235,0.002763,0.001959,,,,-0.217304,-0.273194,0.380338,0.000114,0.000375,0.02445,1,-0.000002,0.000003,0.000002,100254,0.999955,0.008671,-0.001603,-0.003497,0.994307,-0.180167,-0.402255,0.999971,-0.007021,0.003144,0.006965,0.999825,0.017353,-0.003266,-0.017331,0.999845,,,,,,,30.3,,,
40328,1108139,0.002667,0.099719,9.78539,-0.028705,-0.069958,-0.002113,,,,0.001483,-0.001797,0.000275,,,,,,,0.000007,0.000249,0.024463,1,0.000002,-0.000002,0,,0.999955,0.008673,-0.001605,-0.003497,0.994469,-0.180485,-0.402288,0.999971,-0.007021,0.00315,0.006965,0.999825,0.017356,-0.003271,-0.017333,0.999845,,,,,,,30.3,,,
40329,1108164,0.058581,0.173879,9.786842,0.027702,0.003723,0.000804,,,,0.001971,-0.001027,0.0012,,,,,,,0.000146,0.000435,0.024467,1,0.000002,-0.000001,0.000002,,0.999955,0.008675,-0.001607,-0.003495,0.994686,-0.180696,-0.402062,0.999971,-0.007017,0.003154,0.006961,0.999825,0.01736,-0.003275,-0.017337,0.999845,,,,,,,30.3,,,
40330,1108189,0.010765,0.162365,9.83517,-0.020361,-0.00843,0.048772,,,,0.003964,-0.000465,0.001029,,,,,,,0.000027,0.000406,0.024588,1,0.000005,-0.000001,0.000001,,0.999955,0.008679,-0.001608,-0.003494,0.995203,-0.180826,-0.401983,0.999971,-0.007016,0.003156,0.00696,0.999825,0.017369,-0.003277,-0.017346,0.999844,,,,,,,30.3,,,
40331,1108214,0.099915,0.11302,9.785412,0.06857,-0.057727,-0.001555,,,,0.006249,-0.000712,0.001981,,,,-0.218735,-0.274673,0.377856,0.00025,0.000282,0.024464,1,0.000008,-0.000001,0.000002,100257,0.999955,0.008686,-0.00161,-0.003492,0.996047,-0.180994,-0.401769,0.999971,-0.007012,0.003159,0.006956,0.999825,0.017383,-0.00328,-0.017361,0.999844,,,,,,,30.29,,,
40332,1108239,-0.019939,0.175648,9.784625,-0.05082,0.0058,-0.001631,,,,0.002141,0.000352,0.002869,,,,,,,-0.00005,0.000439,0.024462,1,0.000003,0,0.000004,,0.999955,0.008689,-0.00161,-0.003489,0.996302,-0.181011,-0.401424,0.999971,-0.007006,0.003159,0.00695,0.999825,0.017388,-0.00328,-0.017365,0.999844,,,,,,,30.29,,,
40333,1108264,0.075075,0.149768,9.793878,0.044019,-0.020778,0.007471,,,,-0.001241,0.001109,0.000326,,,,,,,0.000188,0.000374,0.024485,1,-0.000002,0.000001,0,,0.999955,0.008687,-0.001609,-0.003488,0.99606,-0.180914,-0.401303,0.999971,-0.007004,0.003158,0.006948,0.999825,0.017384,-0.003279,-0.017361,0.999844,,,,,,,30.29,,,
40334,1108289,-0.01958,0.210363,9.817814,-0.050174,0.039972,0.032158,,,,0.001211,0.003246,0.003471,,,,,,,-0.000049,0.000526,0.024545,1,0.000002,0.000004,0.000004,,0.999955,0.008688,-0.001606,-0.003484,0.996181,-0.180518,-0.400865,0.999971,-0.006996,0.003151,0.006941,0.999825,0.017386,-0.003272,-0.017363,0.999844,,,,,,,30.29,,,
40335,1108314,0.057707,0.131749,9.79321,0.026587,-0.038606,0.006434,,,,-0.002001,0.000521,-0.00394,,,,-0.21821,-0.27813,0.379857,0.000144,0.000329,0.024483,1,-0.000003,0.000001,-0.000005,100254,0.999955,0.008685,-0.001605,-0.00349,0.995846,-0.180495,-0.401496,0.999971,-0.007007,0.00315,0.006952,0.999825,0.01738,-0.003271,-0.017357,0.999844,,,,,,,30.29,,,
40336,1108339,0.025275,0.212411,9.782813,-0.005232,0.042259,-0.002661,,,,0.003078,0.000867,-0.000352,,,,,,,0.000063,0.000531,0.024457,1,0.000004,0.000001,0,,0.999955,0.008688,-0.001605,-0.003491,0.996237,-0.18043,-0.401611,0.999971,-0.007009,0.003149,0.006954,0.999825,0.017387,-0.00327,-0.017364,0.999844,,,,,,,30.29,,,
40337,1108364,0.015346,0.132822,9.787796,-0.015889,-0.037387,0.000907,,,,0.002865,-0.002636,-0.002953,,,,,,,0.000038,0.000332,0.024469,1,0.000004,-0.000003,-0.000004,,0.999955,0.008691,-0.001609,-0.003494,0.996583,-0.180861,-0.401967,0.999971,-0.007016,0.003157,0.00696,0.999825,0.017393,-0.003278,-0.01737,0.999844,,,,,,,30.29,,,
40338,1108389,0.046603,0.231405,9.834099,0.015971,0.06029,0.049016,,,,-0.001138,0.000363,0.001786,,,,,,,0.000117,0.000579,0.024585,1,-0.000001,0,0.000002,,0.999955,0.008689,-0.001609,-0.003492,0.996369,-0.180874,-0.401778,0.999971,-0.007012,0.003157,0.006956,0.999825,0.017389,-0.003278,-0.017366,0.999844,,,,,,,30.29,,,
40339,1108414,0.043807,0.127281,9.796431,0.012681,-0.042997,0.009534,,,,-0.003354,0.002568,0.00189,,,,-0.220145,-0.277132,0.379339,0.00011,0.000318,0.024491,1,-0.000004,0.000003,0.000002,100258,0.999955,0.008685,-0.001606,-0.003491,0.995837,-0.180571,-0.401568,0.999971,-0.007009,0.003152,0.006953,0.999825,0.01738,-0.003273,-0.017357,0.999844,,,,,,,30.29,,,
40340,1108439,-0.00938,0.158797,9.806085,-0.040275,-0.011424,0.019567,,,,0.001398,0.002382,0.001153,,,,,,,-0.000023,0.000397,0.024515,1,0.000002,0.000003,0.000001,,0.999955,0.008686,-0.001604,-0.00349,0.995987,-0.180294,-0.401465,0.999971,-0.007007,0.003147,0.006951,0.999825,0.017382,-0.003268,-0.01736,0.999844,,,,,,,30.29,,,
40341,1108464,0.043942,0.172924,9.794116,0.013255,0.002534,0.008013,,,,0.00094,0.002856,-0.000212,,,,,,,0.00011,0.000432,0.024485,1,0.000001,0.000004,0,,0.999955,0.008687,-0.001601,-0.003489,0.996057,-0.179945,-0.401422,0.999971,-0.007006,0.003141,0.00695,0.999825,0.017384,-0.003262,-0.017361,0.999844,,,,,,,30.29,,,
40342,1108489,-0.02318,0.118576,9.780643,-0.054317,-0.051328,-0.006615,,,,0.005317,-0.00076,-0.002012,,,,,,,-0.000058,0.000296,0.024452,1,0.000007,-0.000001,-0.000003,,0.999955,0.008693,-0.001602,-0.003492,0.996769,-0.18011,-0.40178,0.999971,-0.007012,0.003144,0.006957,0.999825,0.017396,-0.003265,-0.017374,0.999844,,,,,,,30.29,,,
40343,1108514,0.03556,0.187255,9.801793,0.004862,0.016648,0.01591,,,,0.001013,0.000467,-0.000383,,,,-0.216793,-0.275666,0.380849,0.000089,0.000468,0.024504,1,0.000001,0.000001,0,100252,0.999955,0.008694,-0.001602,-0.003493,0.996864,-0.180103,-0.401901,0.999971,-0.007014,0.003143,0.006959,0.999825,0.017398,-0.003265,-0.017375,0.999844,,,,,,,30.3,,,
40344,1108539,-0.001012,0.143712,9.777427,-0.031744,-0.026257,-0.009323,,,,0.001679,0.00431,-0.000606,,,,,,,-0.000002,0.000359,0.024444,1,0.000002,0.000005,-0.000001,,0.999955,0.008695,-0.001597,-0.003495,0.997054,-0.179545,-0.402045,0.999971,-0.007017,0.003134,0.006961,0.999824,0.017401,-0.003255,-0.017379,0.999844,,,,,,,30.3,,,
40345,1108564,0.034425,0.126068,9.78508,0.003386,-0.044258,-0.001868,,,,0.000639,-0.000879,-0.00018,,,,,,,0.000086,0.000315,0.024463,1,0.000001,-0.000001,0,,0.999955,0.008696,-0.001599,-0.003494,0.997081,-0.17973,-0.401983,0.999971,-0.007016,0.003137,0.00696,0.999824,0.017401,-0.003258,-0.017379,0.999844,,,,,,,30.3,,,
40346,1108589,-0.021307,0.166336,9.818004,-0.052177,-0.004327,0.031577,,,,0.003522,-0.000274,0.001218,,,,,,,-0.000053,0.000416,0.024545,1,0.000004,0,0.000002,,0.999955,0.008699,-0.0016,-0.003493,0.997535,-0.179833,-0.401877,0.999971,-0.007014,0.003139,0.006958,0.999824,0.017409,-0.00326,-0.017387,0.999844,,,,,,,30.3,,,
40347,1108614,0.125902,0.11061,9.814525,0.094663,-0.060983,0.027589,,,,0.001285,0.000279,-0.000298,,,,-0.218204,-0.278624,0.379859,0.000315,0.000276,0.024536,1,0.000002,0,0,100244,0.999955,0.008701,-0.0016,-0.003494,0.997669,-0.179853,-0.401986,0.999971,-0.007016,0.003139,0.00696,0.999824,0.017412,-0.003261,-0.017389,0.999844,,,,,,,30.29,,,
40348,1108639,0.007175,0.220131,9.819293,-0.02328,0.049263,0.033892,,,,0.000937,0.001047,0.000384,,,,,,,0.000018,0.00055,0.024548,1,0.000001,0.000001,0,,0.999955,0.008701,-0.001599,-0.003494,0.997752,-0.179765,-0.401996,0.999971,-0.007016,0.003137,0.00696,0.999824,0.017413,-0.003259,-0.017391,0.999844,,,,,,,30.29,,,
40349,1108664,0.050852,0.123537,9.782936,0.019908,-0.046742,-0.004003,,,,-0.004368,0.002039,-0.001213,,,,,,,0.000127,0.000309,0.024457,1,-0.000005,0.000003,-0.000002,,0.999955,0.008695,-0.001597,-0.003495,0.997063,-0.179531,-0.402097,0.999971,-0.007018,0.003133,0.006962,0.999824,0.017401,-0.003255,-0.017379,0.999844,,,,,,,30.29,,,
40350,1108689,0.016329,0.201685,9.821246,-0.014252,0.030763,0.035554,,,,0.002217,0.000107,0.000846,,,,,,,0.000041,0.000504,0.024553,1,0.000003,0,0.000001,,0.999955,0.008698,-0.001598,-0.003495,0.99733,-0.179578,-0.402043,0.999971,-0.007017,0.003134,0.006961,0.999824,0.017406,-0.003256,-0.017383,0.999844,,,,,,,30.29,,,
40351,1108714,0.041572,0.162459,9.795712,0.010566,-0.008221,0.009419,,,,0.001953,-0.004523,0.000084,,,,-0.216783,-0.277153,0.378381,0.000104,0.000406,0.024489,1,0.000002,-0.000006,0,100252,0.999955,0.0087,-0.001604,-0.003495,0.997559,-0.180287,-0.402109,0.999971,-0.007018,0.003147,0.006962,0.999824,0.01741,-0.003268,-0.017387,0.999844,,,,,,,30.29,,,
40352,1108739,0.01651,0.193536,9.817791,-0.014178,0.022628,0.031957,,,,0.00143,0.001494,0.000129,,,,,,,0.000041,0.000484,0.024544,1,0.000002,0.000002,0,,0.999955,0.008701,-0.001602,-0.003496,0.997713,-0.180134,-0.402155,0.999971,-0.007019,0.003144,0.006963,0.999824,0.017412,-0.003266,-0.01739,0.999844,,,,,,,30.29,,,
40353,1108764,0.005774,0.149024,9.791231,-0.025145,-0.021366,0.004591,,,,0.001483,0.000793,-0.000322,,,,,,,0.000014,0.000372,0.024478,1,0.000002,0.000001,0,,0.999955,0.008702,-0.001602,-0.003495,0.997862,-0.18008,-0.402101,0.999971,-0.007018,0.003143,0.006962,0.999824,0.017415,-0.003265,-0.017393,0.999844,,,,,,,30.29,,,
40354,1108789,0.021601,0.201296,9.766386,-0.008999,0.031123,-0.019287,,,,0.002884,-0.002019,-0.002709,,,,,,,0.000054,0.000503,0.024416,1,0.000004,-0.000003,-0.000003,,0.999955,0.008705,-0.001605,-0.003499,0.998226,-0.180423,-0.402562,0.999971,-0.007026,0.003149,0.00697,0.999824,0.017421,-0.003271,-0.017399,0.999844,,,,,,,30.29,,,
40355,1108814,-0.003899,0.140506,9.827826,-0.035061,-0.030622,0.041004,,,,0.003158,0.000537,0.000244,,,,-0.219179,-0.276635,0.383305,-0.00001,0.000351,0.02457,1,0.000004,0.000001,0,100261,0.999955,0.008709,-0.001605,-0.003499,0.998628,-0.180408,-0.402593,0.999971,-0.007026,0.003149,0.006971,0.999824,0.017428,-0.003271,-0.017406,0.999843,,,,,,,30.3,,,
40356,1108839,0.062702,0.20429,9.810521,0.03207,0.033189,0.025021,,,,-0.002384,0.001047,-0.00139,,,,,,,0.000157,0.000511,0.024526,1,-0.000003,0.000001,-0.000002,,0.999955,0.008705,-0.001604,-0.0035,0.998222,-0.180315,-0.402711,0.999971,-0.007029,0.003147,0.006973,0.999824,0.017421,-0.003269,-0.017399,0.999844,,,,,,,30.3,,,
40357,1108864,0.021822,0.130817,9.784579,-0.009334,-0.039623,-0.002325,,,,0.000817,-0.001283,-0.001918,,,,,,,0.000054,0.000327,0.024461,1,0.000001,-0.000002,-0.000002,,0.999955,0.008706,-0.001606,-0.003503,0.99829,-0.180555,-0.403056,0.999971,-0.007035,0.003151,0.006979,0.999824,0.017422,-0.003273,-0.0174,0.999844,,,,,,,30.3,,,
40358,1108889,0.016847,0.151022,9.817288,-0.014286,-0.020084,0.030716,,,,0.003228,-0.000533,0.00449,,,,,,,0.000042,0.000377,0.024543,1,0.000004,-0.000001,0.000006,,0.999955,0.00871,-0.001607,-0.003498,0.9987,-0.180703,-0.402482,0.999971,-0.007025,0.003154,0.006969,0.999824,0.01743,-0.003276,-0.017407,0.999843,,,,,,,30.3,,,
40359,1108914,0.002974,0.167106,9.807203,-0.028044,-0.003734,0.020869,,,,0.001871,-0.000697,0.000594,,,,-0.217265,-0.277151,0.377882,0.000007,0.000418,0.024518,1,0.000002,-0.000001,0.000001,100245,0.999955,0.008711,-0.001609,-0.003498,0.998917,-0.180865,-0.402466,0.999971,-0.007024,0.003157,0.006968,0.999824,0.017433,-0.003279,-0.017411,0.999843,,,,,,,30.29,,,
40360,1108939,0.022063,0.160852,9.791017,-0.009005,-0.009813,0.004636,,,,0.000585,-0.001429,-0.004412,,,,,,,0.000055,0.000402,0.024478,1,0.000001,-0.000002,-0.000006,,0.999955,0.008712,-0.001611,-0.003504,0.998952,-0.181119,-0.403169,0.999971,-0.007037,0.003161,0.00698,0.999824,0.017434,-0.003283,-0.017411,0.999843,,,,,,,30.29,,,
40361,1108964,0.022916,0.110103,9.778976,-0.008641,-0.060278,-0.008286,,,,-0.000918,-0.004031,0.001363,,,,,,,0.000057,0.000275,0.024447,1,-0.000001,-0.000005,0.000002,,0.999955,0.00871,-0.001617,-0.003502,0.998757,-0.181761,-0.402889,0.99997,-0.007032,0.003172,0.006975,0.999824,0.017431,-0.003294,-0.017408,0.999843,,,,,,,30.29,,,
40362,1108989,0.02492,0.115684,9.805226,-0.006369,-0.055287,0.018063,,,,0.00209,0.004645,-0.001834,,,,,,,0.000063,0.000289,0.024513,1,0.000003,0.000006,-0.000002,,0.999955,0.008712,-0.001611,-0.003505,0.999006,-0.181152,-0.403208,0.99997,-0.007037,0.003162,0.006981,0.999824,0.017435,-0.003284,-0.017412,0.999843,,,,,,,30.29,,,
40363,1109014,0.05812,0.196812,9.816835,0.027247,0.025361,0.03119,,,,0.001853,0.00029,0.001345,,,,-0.21777,-0.274675,0.37935,0.000145,0.000492,0.024542,1,0.000002,0,0.000002,100254,0.999955,0.008714,-0.001612,-0.003504,0.999221,-0.181174,-0.403082,0.99997,-0.007035,0.003162,0.006979,0.999824,0.017439,-0.003284,-0.017416,0.999843,,,,,,,30.3,,,
40364,1109039,-0.033083,0.104414,9.80351,-0.064543,-0.066115,0.015965,,,,0.000448,0.000563,-0.0009,,,,,,,-0.000083,0.000261,0.024509,1,0.000001,0.000001,-0.000001,,0.999955,0.008714,-0.001611,-0.003505,0.999235,-0.181152,-0.403277,0.99997,-0.007038,0.003162,0.006982,0.999824,0.017439,-0.003284,-0.017416,0.999843,,,,,,,30.3,,,
40365,1109064,0.099991,0.189377,9.827615,0.069116,0.017543,0.041969,,,,-0.000937,0.002021,0.000144,,,,,,,0.00025,0.000473,0.024569,1,-0.000001,0.000003,0,,0.999955,0.008713,-0.001609,-0.003504,0.999036,-0.180924,-0.403145,0.99997,-0.007036,0.003158,0.00698,0.999824,0.017436,-0.00328,-0.017413,0.999843,,,,,,,30.3,,,
40366,1109089,0.012228,0.161558,9.796977,-0.018793,-0.009144,0.010574,,,,0.000229,0.000121,0.001446,,,,,,,0.000031,0.000404,0.024492,1,0,0,0.000002,,0.999955,0.008712,-0.00161,-0.003503,0.999018,-0.180971,-0.403005,0.99997,-0.007034,0.003159,0.006978,0.999824,0.017435,-0.003281,-0.017413,0.999843,,,,,,,30.3,,,
40367,1109114,0.04094,0.161308,9.8053,0.009918,-0.00962,0.01898,,,,-0.002199,0.000835,-0.000128,,,,-0.217259,-0.277645,0.377884,0.000102,0.000403,0.024513,1,-0.000003,0.000001,0,100248,0.999955,0.008709,-0.001609,-0.003504,0.998653,-0.180912,-0.403088,0.99997,-0.007035,0.003158,0.006979,0.999824,0.017429,-0.00328,-0.017406,0.999843,,,,,,,30.29,,,
40368,1109139,0.057879,0.181844,9.816835,0.026948,0.010448,0.030928,,,,0.002035,0.000405,0.002306,,,,,,,0.000145,0.000454,0.024542,1,0.000003,0.000001,0.000003,,0.999955,0.008711,-0.001609,-0.003501,0.998893,-0.18092,-0.402825,0.99997,-0.007031,0.003158,0.006974,0.999824,0.017433,-0.00328,-0.01741,0.999843,,,,,,,30.29,,,
40369,1109164,-0.020791,0.140986,9.820986,-0.052179,-0.029878,0.034117,,,,0.000376,-0.002889,0.00016,,,,,,,-0.000052,0.000352,0.024552,1,0,-0.000004,0,,0.999955,0.008711,-0.001614,-0.0035,0.998882,-0.181395,-0.402704,0.99997,-0.007028,0.003166,0.006972,0.999824,0.017433,-0.003288,-0.01741,0.999843,,,,,,,30.29,,,
40370,1109189,0.055582,0.202776,9.783055,0.024748,0.032135,-0.002491,,,,-0.001892,-0.001238,0.000194,,,,,,,0.000139,0.000507,0.024458,1,-0.000002,-0.000002,0,,0.999955,0.008708,-0.001616,-0.003501,0.99856,-0.181634,-0.402747,0.99997,-0.007029,0.00317,0.006973,0.999824,0.017427,-0.003292,-0.017405,0.999843,,,,,,,30.29,,,
40371,1109214,-0.061839,0.169248,9.800961,-0.09286,-0.000758,0.014457,,,,-0.003149,0.001655,0.000326,,,,-0.219161,-0.279114,0.379357,-0.000154,0.000423,0.024502,1,-0.000004,0.000002,0,100253,0.999955,0.008704,-0.001614,-0.003501,0.998059,-0.181458,-0.402764,0.99997,-0.007029,0.003167,0.006973,0.999824,0.017418,-0.003289,-0.017396,0.999843,,,,,,,30.29,,,
40372,1109239,0.042989,0.179057,9.810473,0.012042,0.008165,0.024469,,,,-0.001764,0.001916,0.002127,,,,,,,0.000108,0.000448,0.024526,1,-0.000002,0.000002,0.000003,,0.999955,0.008701,-0.001612,-0.003499,0.997755,-0.18125,-0.402522,0.99997,-0.007025,0.003163,0.006969,0.999824,0.017413,-0.003285,-0.017391,0.999843,,,,,,,30.29,,,
40373,1109264,0.036839,0.204273,9.813428,0.005947,0.033345,0.027844,,,,-0.000152,-0.001112,0.000077,,,,,,,0.000092,0.000511,0.024534,1,0,-0.000001,0,,0.999955,0.008701,-0.001614,-0.003498,0.997669,-0.181471,-0.40241,0.99997,-0.007023,0.003167,0.006967,0.999824,0.017412,-0.003289,-0.017389,0.999843,,,,,,,30.29,,,
40374,1109289,0.02569,0.129691,9.799671,-0.005588,-0.040885,0.012756,,,,-0.000376,0.001446,-0.001107,,,,,,,0.000064,0.000324,0.024499,1,0,0.000002,-0.000001,,0.999955,0.0087,-0.001613,-0.0035,0.997565,-0.181321,-0.402632,0.99997,-0.007027,0.003165,0.006971,0.999824,0.01741,-0.003286,-0.017387,0.999843,,,,,,,30.29,,,
40375,1109314,0.028114,0.162894,9.811401,-0.002834,-0.007874,0.02507,,,,-0.000712,0.003739,0.000872,,,,-0.218688,-0.278624,0.37837,0.000071,0.000407,0.024529,1,-0.000001,0.000005,0.000001,100254,0.999955,0.008698,-0.001609,-0.003499,0.997413,-0.180849,-0.402565,0.99997,-0.007026,0.003156,0.00697,0.999824,0.017407,-0.003278,-0.017385,0.999844,,,,,,,30.3,,,
40376,1109339,0.032754,0.146765,9.802125,0.001583,-0.024012,0.01553,,,,0.002705,-0.000763,0.001293,,,,,,,0.000082,0.000367,0.024505,1,0.000003,-0.000001,0.000002,,0.999955,0.008701,-0.00161,-0.003498,0.997749,-0.181022,-0.40245,0.99997,-0.007024,0.003159,0.006968,0.999824,0.017413,-0.003281,-0.017391,0.999843,,,,,,,30.3,,,
40377,1109364,0.041408,0.155316,9.790206,0.010451,-0.015213,0.003788,,,,-0.000532,0.002215,0.002321,,,,,,,0.000104,0.000388,0.024476,1,-0.000001,0.000003,0.000003,,0.999955,0.0087,-0.001608,-0.003494,0.997607,-0.180771,-0.402011,0.999971,-0.007016,0.003155,0.00696,0.999824,0.017411,-0.003277,-0.017388,0.999844,,,,,,,30.3,,,
40378,1109389,0.018521,0.143966,9.794188,-0.012534,-0.026397,0.007501,,,,-0.001591,0.001133,0.000546,,,,,,,0.000046,0.00036,0.024485,1,-0.000002,0.000001,0.000001,,0.999955,0.008698,-0.001607,-0.003494,0.997329,-0.180671,-0.401998,0.99997,-0.007016,0.003153,0.00696,0.999824,0.017406,-0.003275,-0.017383,0.999844,,,,,,,30.3,,,
40379,1109414,0.00004,0.109594,9.790564,-0.031217,-0.060586,0.00322,,,,-0.000283,0.001299,-0.00069,,,,-0.219653,-0.278123,0.379348,0,0.000274,0.024476,1,0,0.000002,-0.000001,100249,0.999955,0.008697,-0.001606,-0.003496,0.997238,-0.180544,-0.402161,0.99997,-0.007019,0.003151,0.006963,0.999824,0.017404,-0.003273,-0.017382,0.999844,,,,,,,30.29,,,
40380,1109439,0.056305,0.184125,9.817527,0.025405,0.012986,0.031654,,,,0.001708,-0.000548,0.002541,,,,,,,0.000141,0.00046,0.024544,1,0.000002,-0.000001,0.000003,,0.999955,0.008699,-0.001607,-0.003493,0.997431,-0.18069,-0.401865,0.999971,-0.007014,0.003154,0.006958,0.999824,0.017407,-0.003275,-0.017385,0.999844,,,,,,,30.29,,,
40381,1109464,0.010773,0.166391,9.809111,-0.020162,-0.004366,0.022787,,,,0.002845,0.001145,0.000788,,,,,,,0.000027,0.000416,0.024523,1,0.000004,0.000001,0.000001,,0.999955,0.008702,-0.001606,-0.003491,0.997774,-0.180588,-0.401654,0.999971,-0.00701,0.003152,0.006954,0.999824,0.017413,-0.003273,-0.017391,0.999844,,,,,,,30.29,,,
40382,1109489,0.07546,0.167965,9.799886,0.044621,-0.003053,0.013795,,,,0.000968,0.001987,0.002845,,,,,,,0.000189,0.00042,0.0245,1,0.000001,0.000002,0.000004,,0.999955,0.008702,-0.001604,-0.003488,0.997861,-0.180371,-0.401309,0.999971,-0.007004,0.003148,0.006948,0.999824,0.017415,-0.003269,-0.017393,0.999844,,,,,,,30.29,,,
40383,1109514,0.03161,0.144568,9.804962,0.000495,-0.02632,0.018325,,,,0.002546,-0.000849,-0.002795,,,,-0.217259,-0.277147,0.379862,0.000079,0.000361,0.024512,1,0.000003,-0.000001,-0.000003,100254,0.999955,0.008705,-0.001606,-0.003492,0.998176,-0.180546,-0.401779,0.999971,-0.007012,0.003151,0.006956,0.999824,0.01742,-0.003273,-0.017398,0.999843,,,,,,,30.3,,,
40384,1109539,0.052034,0.201322,9.798452,0.021416,0.030224,0.01287,,,,0.004903,0.001443,-0.001526,,,,,,,0.00013,0.000503,0.024496,1,0.000006,0.000002,-0.000002,,0.999955,0.008711,-0.001605,-0.003495,0.998828,-0.180397,-0.402062,0.999971,-0.007017,0.003149,0.006961,0.999824,0.017432,-0.00327,-0.017409,0.999843,,,,,,,30.3,,,
40385,1109564,0.023693,0.161388,9.805679,-0.007356,-0.00955,0.019309,,,,0.001075,-0.001708,0.000269,,,,,,,0.000059,0.000403,0.024514,1,0.000001,-0.000002,0,,0.999955,0.008712,-0.001607,-0.003494,0.998918,-0.180702,-0.401925,0.999971,-0.007015,0.003154,0.006959,0.999824,0.017433,-0.003276,-0.017411,0.999843,,,,,,,30.3,,,
40386,1109589,0.023255,0.196763,9.799385,-0.007562,0.025927,0.013631,,,,0.000805,-0.001308,0.001209,,,,,,,0.000058,0.000492,0.024498,1,0.000001,-0.000002,0.000002,,0.999955,0.008712,-0.00161,-0.003493,0.998983,-0.180953,-0.401823,0.999971,-0.007013,0.003158,0.006957,0.999824,0.017435,-0.00328,-0.017412,0.999843,,,,,,,30.3,,,
40387,1109614,-0.002655,0.18271,9.781955,-0.03352,0.012275,-0.004124,,,,0.002352,-0.000581,0.001479,,,,-0.222526,-0.279095,0.379325,-0.000007,0.000457,0.024455,1,0.000003,-0.000001,0.000002,100246,0.999955,0.008715,-0.001611,-0.003491,0.999268,-0.181101,-0.40168,0.999971,-0.007011,0.003161,0.006954,0.999824,0.01744,-0.003283,-0.017417,0.999843,,,,,,,30.29,,,
40388,1109639,0.025228,0.188798,9.795787,-0.005593,0.018098,0.009899,,,,-0.002164,0.000856,0.000153,,,,,,,0.000063,0.000472,0.024489,1,-0.000003,0.000001,0,,0.999955,0.008711,-0.00161,-0.003492,0.998908,-0.18104,-0.401723,0.999971,-0.007011,0.00316,0.006955,0.999824,0.017433,-0.003281,-0.017411,0.999843,,,,,,,30.29,,,
40389,1109664,-0.002927,0.141921,9.790562,-0.034051,-0.028649,0.003771,,,,0.002519,0.00078,0.001731,,,,,,,-0.000007,0.000355,0.024476,1,0.000003,0.000001,0.000002,,0.999955,0.008714,-0.00161,-0.003489,0.999204,-0.180993,-0.401381,0.999971,-0.007005,0.003159,0.006949,0.999824,0.017438,-0.003281,-0.017416,0.999843,,,,,,,30.29,,,
40390,1109689,0.030196,0.177198,9.809041,-0.000702,0.006127,0.022967,,,,0.000232,0.001416,-0.001317,,,,,,,0.000076,0.000443,0.024523,1,0,0.000002,-0.000002,,0.999955,0.008714,-0.001609,-0.003491,0.999187,-0.180848,-0.401634,0.999971,-0.00701,0.003156,0.006954,0.999824,0.017438,-0.003278,-0.017416,0.999843,,,,,,,30.29,,,
40391,1109714,0.036675,0.154215,9.805846,0.005617,-0.016744,0.019393,,,,-0.001685,0.000717,0.000874,,,,-0.215832,-0.276668,0.376408,0.000092,0.000386,0.024515,1,-0.000002,0.000001,0.000001,100250,0.999955,0.008711,-0.001608,-0.00349,0.998895,-0.180808,-0.401574,0.999971,-0.007009,0.003156,0.006953,0.999824,0.017433,-0.003277,-0.017411,0.999843,,,,,,,30.3,,,
40392,1109739,0.004166,0.13311,9.795547,-0.027019,-0.037473,0.008622,,,,0.000026,0.00027,-0.000423,,,,,,,0.00001,0.000333,0.024489,1,0,0,-0.000001,,0.999955,0.008711,-0.001609,-0.003492,0.998849,-0.180829,-0.401702,0.999971,-0.007011,0.003156,0.006955,0.999824,0.017432,-0.003278,-0.01741,0.999843,,,,,,,30.3,,,
40393,1109764,0.084377,0.14662,9.816647,0.053148,-0.024868,0.030208,,,,-0.000298,-0.000982,0.00179,,,,,,,0.000211,0.000367,0.024542,1,0,-0.000001,0.000002,,0.999955,0.00871,-0.00161,-0.003489,0.99874,-0.181034,-0.401361,0.999971,-0.007005,0.00316,0.006949,0.999824,0.01743,-0.003281,-0.017408,0.999843,,,,,,,30.3,,,
40394,1109789,0.005373,0.145432,9.795382,-0.025603,-0.025029,0.008675,,,,-0.002091,0.003573,0.001813,,,,,,,0.000014,0.000364,0.024488,1,-0.000003,0.000004,0.000002,,0.999955,0.008707,-0.001606,-0.003487,0.99839,-0.180588,-0.40116,0.99997,-0.007001,0.003152,0.006946,0.999824,0.017424,-0.003273,-0.017402,0.999843,,,,,,,30.3,,,
40395,1109814,-0.000516,0.132708,9.818196,-0.031626,-0.03811,0.031247,,,,-0.000796,0.002594,0.000986,,,,-0.220149,-0.277135,0.377854,-0.000001,0.000332,0.024545,1,-0.000001,0.000003,0.000001,100252,0.999955,0.008705,-0.001604,-0.003486,0.998225,-0.18028,-0.401079,0.99997,-0.007,0.003146,0.006944,0.999824,0.017421,-0.003268,-0.017399,0.999843,,,,,,,30.3,,,
40396,1109839,0.087498,0.175224,9.800148,0.056669,0.004113,0.014218,,,,-0.00058,0.000026,-0.001378,,,,,,,0.000219,0.000438,0.0245,1,-0.000001,0,-0.000002,,0.999955,0.008704,-0.001604,-0.003489,0.998092,-0.180333,-0.401344,0.99997,-0.007005,0.003147,0.006949,0.999824,0.017419,-0.003269,-0.017397,0.999843,,,,,,,30.3,,,
40397,1109864,-0.012855,0.149537,9.824373,-0.043988,-0.021101,0.037678,,,,-0.003855,-0.000748,0.001981,,,,,,,-0.000032,0.000374,0.024561,1,-0.000005,-0.000001,0.000002,,0.999955,0.008699,-0.001606,-0.003485,0.997475,-0.180505,-0.400976,0.999971,-0.006998,0.00315,0.006942,0.999824,0.017408,-0.003272,-0.017386,0.999844,,,,,,,30.3,,,
40398,1109889,0.033235,0.135462,9.779548,0.002301,-0.034932,-0.00724,,,,0.002626,0.002947,0.001339,,,,,,,0.000083,0.000338,0.024449,1,0.000003,0.000004,0.000002,,0.999955,0.008702,-0.001602,-0.003484,0.9978,-0.180147,-0.400844,0.999971,-0.006996,0.003144,0.00694,0.999824,0.017414,-0.003265,-0.017392,0.999843,,,,,,,30.3,,,
40399,1109914,0.023847,0.209761,9.796953,-0.00672,0.039142,0.011427,,,,0.00098,-0.000171,0.001774,,,,-0.219189,-0.276643,0.379346,0.00006,0.000524,0.024492,1,0.000001,0,0.000002,100248,0.999955,0.008703,-0.001603,-0.003483,0.997889,-0.180237,-0.400658,0.999971,-0.006993,0.003146,0.006937,0.999824,0.017415,-0.003267,-0.017393,0.999843,,,,,,,30.3,,,
40400,1109939,0.059593,0.126258,9.829949,0.028355,-0.045263,0.043077,,,,0.002543,0.00046,-0.00077,,,,,,,0.000149,0.000315,0.024575,1,0.000003,0.000001,-0.000001,,0.999955,0.008705,-0.001603,-0.003484,0.998203,-0.18023,-0.400834,0.999971,-0.006996,0.003146,0.00694,0.999824,0.017421,-0.003267,-0.017399,0.999843,,,,,,,30.3,,,
40401,1109964,0.053451,0.235021,9.81133,0.023012,0.063946,0.026337,,,,-0.000456,0.000153,0.002819,,,,,,,0.000134,0.000588,0.024528,1,-0.000001,0,0.000004,,0.999955,0.008704,-0.001604,-0.00348,0.998072,-0.180276,-0.400345,0.999971,-0.006987,0.003146,0.006931,0.999824,0.017419,-0.003268,-0.017396,0.999844,,,,,,,30.3,,,
40402,1109989,-0.006831,0.122365,9.76398,-0.038027,-0.047514,-0.023159,,,,0.001348,-0.002451,-0.000724,,,,,,,-0.000017,0.000306,0.02441,1,0.000002,-0.000003,-0.000001,,0.999955,0.008705,-0.001607,-0.003481,0.998215,-0.180686,-0.400522,0.999971,-0.00699,0.003154,0.006934,0.999824,0.017421,-0.003275,-0.017399,0.999844,,,,,,,30.3,,,
